res_name,res_tell,res_addr,res_runtime,res_keyword,res_latitude,res_longitude,raiting,like_count
광화문짬뽕,02-2075-7565,서울 종로구 종로 19 2층 225호,,중식당,37.572048477,127.005070736,4.44,463
워터밀,02-763-8877,서울 종로구 수표로28길 33-7 워터밀,매일 11:30 - 21:00 ,양식,37.573448126,126.9900266,4.38,111
꽃밥에피다,02-732-0276,서울 종로구 인사동16길 3-6,,한식,37.575275509,126.984015028,4.32,548
땡스오트 안국,0507-1392-0891,서울 종로구 북촌로 21-10,매일 11:00 - 21:00 ,"카페,디저트",37.578804758,126.984598918,4.48,326
용금옥,02-777-4749,서울 종로구 자하문로 41-2,,"해물,생선요리",37.579775555,126.970881003,4.24,103
더숲 초소책방,02-735-0206,서울 종로구 옥인동 산3-1,매일 08:00 - 22:00 ,북카페,,,4.36,169
블란서미술관,0507-1432-8263,서울 종로구 삼일대로32길 49-9,평일 12:00 - 22:00 매주 월요일 휴무,"카페,디저트",37.5759185,126.989593763,4.94,217
모던샤브하우스,02-2251-8501,서울 종로구 종로3길 17 D타워 리플레이스 광화문 5층,매일 11:30 - 22:00 (Last Order 21:00),샤브샤브,37.571068136,126.97889685,4.55,391
제이엘리,0507-1339-9036,서울 종로구 자하문로5길 4 제이엘리,,양식,37.577867857,126.971467848,4.66,215
경양카츠,0507-1447-8896,서울 종로구 수표로28길 15,,일식당,37.572915145,126.989375134,4.3,552
청수당,0507-1318-8215,서울 종로구 돈화문로11나길 31-9,매일 11:30 - 22:00 Last Order  : 21:30,"카페,디저트",37.573936776,126.98974505,4.37,909
거울한옥 미러룸,02-6085-3900,서울 종로구 삼청로2길 40 거울한옥 미러룸,,"카페,디저트",37.580063221,126.981108024,4.36,110
미인과 자연,010-5372-6389,서울 종로구 세검정로9길 78,,"백반,가정식",37.606243123,126.959745318,4.32,17
